City_ID,City,Lat,Lng,Max Temp,Humidity,Cloudiness,Wind Speed,Country,Date
0,susuman,62.7833,148.1667,10.53,98,67,1.52,RU,1682872471
1,kerikeri,-35.2268,173.9474,67.91,97,86,1.01,NZ,1682872471
2,hawaiian paradise park,19.5933,-154.9731,68.9,93,75,9.22,US,1682872472
3,blackmans bay,-43.0167,147.3167,48.52,89,10,4.25,AU,1682872472
4,albany,42.6001,-73.9662,57.92,79,100,6.22,US,1682872472
5,portales,34.1862,-103.3344,78.1,13,0,16.8,US,1682872472
6,veracruz,19.3333,-96.6667,74.71,62,89,3.24,MX,1682872204
7,mirik,26.8945,88.1848,55.85,79,100,2.13,IN,1682872473
8,vilyuchinsk,52.9306,158.4028,30.47,88,88,4.94,RU,1682872473
9,kidal,18.4411,1.4078,102.6,8,17,7.49,ML,1682872473
10,bethel,41.3712,-73.414,56.64,88,100,11.5,US,1682872474
11,sur,22.5667,59.5289,83.79,66,0,6.55,OM,1682872474
12,minas de marcona,-15.2119,-75.1103,68.83,60,34,18.68,PE,1682872475
13,pimentel,-6.8367,-79.9342,88.09,58,0,4.61,PE,1682872475
14,grytviken,-54.2811,-36.5092,39.92,97,99,17.78,GS,1682872475
15,waitangi,-43.9535,-176.5597,57.81,74,99,9.01,NZ,1682872476
16,mariental,-24.6333,17.9667,83.3,24,3,9.75,NA,1682872476
17,isafjordur,66.0755,-23.124,37.44,44,0,19.57,IS,1682872477
18,yigo village,13.5361,144.8886,79.92,82,75,13.8,GU,1682872477
19,adamstown,-25.066,-130.1015,76.71,79,58,11.74,PN,1682872477
20,anadyr,64.75,177.4833,-1.7,84,0,8.95,RU,1682872477
21,lusambo,-4.9667,23.45,71.17,94,95,0.78,CD,1682872478
22,port-aux-francais,-49.35,70.2167,46.83,94,100,31.14,TF,1682872479
23,mukalla,14.5425,49.1242,84.45,74,12,4.99,YE,1682872479
24,sault ste. marie,46.5168,-84.3333,48.02,73,100,11.5,CA,1682872276
25,tyukhtet,56.5389,89.3011,29.17,89,96,6.55,RU,1682872479
26,new norfolk,-42.7826,147.0587,49.71,71,21,2.75,AU,1682872473
27,kununurra,-15.7667,128.7333,71.58,83,66,3.44,AU,1682872207
28,tazacorte,28.629,-17.9293,74.37,73,0,11.5,ES,1682872480
29,longyearbyen,78.2186,15.6401,19.24,68,75,14.97,SJ,1682872480
30,palikir - national government center,6.9248,158.1611,82.0,81,97,19.17,FM,1682872480
31,tura,25.5198,90.2201,69.33,81,100,2.51,IN,1682872480
32,champerico,14.3,-91.9167,90.14,56,91,8.72,GT,1682872481
33,stanley,54.868,-1.6985,55.42,86,75,6.91,GB,1682872227
34,kapuskasing,49.4169,-82.4331,48.29,93,100,8.05,CA,1682872210
35,kenai,60.5544,-151.2583,39.15,80,0,6.91,US,1682872481
36,bilibino,68.0546,166.4372,8.01,97,99,3.22,RU,1682872481
37,bu'aale,1.0833,42.5833,77.31,88,99,10.29,SO,1682872481
38,kapa'a,22.0752,-159.319,73.72,82,40,12.66,US,1682872481
39,antonio enes,-16.2325,39.9086,75.07,63,6,10.22,MZ,1682872481
40,akureyri,65.6835,-18.0878,37.33,52,20,20.71,IS,1682872482
41,genhe,50.7833,121.5167,30.78,83,10,3.47,CN,1682872482
42,dubbo,-32.25,148.6167,42.93,100,1,5.75,AU,1682872482
43,tual,-5.6667,132.75,82.27,78,95,11.68,ID,1682872482
44,petropavlovsk-kamchatsky,53.0452,158.6483,28.99,80,75,4.47,RU,1682872482
45,san patricio,28.017,-97.5169,81.16,36,0,5.75,US,1682872482
46,itaberaba,-12.5275,-40.3069,90.72,36,39,7.76,BR,1682872482
47,arkhangel'sk,64.5401,40.5433,46.51,57,0,8.95,RU,1682872518
48,edinburgh of the seven seas,-37.0676,-12.3116,57.52,68,26,11.79,SH,1682872542
49,college,64.8569,-147.8028,37.9,92,100,4.61,US,1682872543
50,betio village,1.358,172.9211,82.44,81,93,16.31,KI,1682872543
51,haiku-pauwela,20.9219,-156.3051,73.04,78,20,12.66,US,1682872543
52,papatowai,-46.5619,169.4708,49.62,83,100,4.21,NZ,1682872543
53,baardheere,2.3446,42.2764,80.11,78,100,11.95,SO,1682872543
54,lypova dolyna,50.5643,33.7979,42.71,91,100,9.6,UA,1682872543
55,ambovombe,-25.1667,46.0833,71.83,88,93,10.0,MG,1682872543
56,wynyard,-41.0,145.7167,51.98,91,23,4.34,AU,1682872543
57,invercargill,-46.4,168.35,46.62,94,98,3.53,NZ,1682872283
58,kavaratti,10.5669,72.642,83.89,73,96,5.68,IN,1682872544
59,dudinka,69.4058,86.1778,20.62,92,85,16.44,RU,1682872514
60,iqaluit,63.7506,-68.5145,31.73,74,100,15.01,CA,1682872544
61,ushuaia,-54.8,-68.3,38.86,48,20,4.61,AR,1682872531
62,brookings,44.3114,-96.7984,47.1,47,0,35.68,US,1682872391
63,thompson,55.7435,-97.8558,42.96,56,75,10.36,CA,1682872544
64,iskateley,67.6803,53.1512,24.76,91,86,7.31,RU,1682872544
65,bredasdorp,-34.5322,20.0403,57.61,85,3,4.99,ZA,1682872544
66,hamilton,39.1834,-84.5333,58.24,60,75,13.8,US,1682872514
67,saipan,15.1355,145.701,81.3,83,75,16.11,MP,1682872545
68,walvis bay,-22.9575,14.5053,58.08,77,22,11.41,NA,1682872545
69,gorno-altaysk,51.9561,85.955,38.7,67,100,2.46,RU,1682872461
70,orlov,58.5395,48.8917,46.83,68,100,5.12,RU,1682872545
71,lihue,21.9789,-159.3672,72.99,82,40,12.66,US,1682872294
72,saint croix,17.7397,-64.7388,86.45,80,0,13.8,VI,1682872545
73,dalhart,36.0595,-102.5133,65.48,39,0,14.97,US,1682872545
74,vorgashor,67.5833,63.95,11.34,89,7,3.89,RU,1682872545
75,woodward,36.4337,-99.3904,65.43,40,0,17.27,US,1682872545
76,labrador city,52.9463,-66.9114,58.91,38,75,8.05,CA,1682872546
77,balykshi,47.0667,51.8667,86.0,20,34,22.37,KZ,1682872546
78,shimanovsk,52.0,127.7,41.04,50,22,1.25,RU,1682872334
79,puerto colombia,10.9878,-74.9547,82.49,71,100,5.77,CO,1682872546
80,uturoa,-16.7333,-151.4333,82.17,79,23,15.32,PF,1682872546
81,ak-suu,42.4995,78.527,48.07,68,95,4.0,KG,1682872546
82,penal,10.1667,-61.4667,90.9,58,78,11.56,TT,1682872546
83,olonkinbyen,70.9221,-8.7187,32.47,96,100,19.1,SJ,1682872546
84,vernon,50.2581,-119.2691,63.93,42,60,3.44,CA,1682872547
85,prainha,-1.8,-53.48,85.95,64,73,3.44,BR,1682872547
86,touros,-5.1989,-35.4608,83.43,75,48,11.74,BR,1682872547
87,jutai,-5.1833,-68.9,83.61,83,100,2.62,BR,1682872547
88,puerto natales,-51.7236,-72.4875,41.45,60,75,16.11,CL,1682872382
89,las higueras,-33.0923,-64.289,60.66,55,100,25.32,AR,1682872547
90,goba,7.0167,39.9833,52.39,96,100,1.7,ET,1682872547
91,mejit,10.2753,170.8646,80.96,79,71,20.98,MH,1682872547
92,sierra grande,-41.606,-65.3557,57.88,24,76,10.0,AR,1682872547
93,carnarvon,-24.8667,113.6333,71.2,80,100,5.84,AU,1682872548
94,labytnangi,66.6572,66.4183,16.18,92,5,4.03,RU,1682872548
95,wailua homesteads,22.0669,-159.378,72.39,83,40,12.66,US,1682872548
96,talnakh,69.4865,88.3972,20.21,86,9,12.53,RU,1682872608
97,ribeira grande,38.5167,-28.7,64.8,68,20,18.41,PT,1682872608
98,puerto leguizamo,-0.1934,-74.7819,82.51,70,100,0.74,CO,1682872608
99,copala,16.65,-98.9833,86.83,47,28,6.42,MX,1682872608
100,miguel ahumada,30.6167,-106.5167,81.61,8,28,5.35,MX,1682872608
101,arraial do cabo,-22.9661,-42.0278,78.66,65,0,14.97,BR,1682872376
102,avarua,-21.2078,-159.775,75.25,64,97,8.05,CK,1682872609
103,sinabang,2.4803,96.3801,81.07,82,99,2.46,ID,1682872609
104,liwa,24.5361,56.5656,84.15,47,0,5.37,OM,1682872609
105,bubaque,11.2833,-15.8333,77.05,78,6,9.51,GW,1682872514
106,colonia,50.9333,6.95,66.88,45,0,3.44,DE,1682872407
107,la passe,45.5549,-0.8967,64.63,82,18,14.45,FR,1682872609
108,yellowknife,62.456,-114.3525,41.52,56,75,16.11,CA,1682872561
109,constantia,44.1833,28.65,63.28,81,87,13.78,RO,1682872609
110,kanniyakumari,8.0833,77.5667,82.67,77,84,4.61,IN,1682872609
111,buka,40.8108,69.1986,74.05,27,100,5.66,UZ,1682872610
112,ain el bya,35.8039,-0.3018,82.89,66,100,9.44,DZ,1682872610
113,souillac,-20.5167,57.5167,79.18,83,40,0.0,MU,1682872610
114,west island,-12.1568,96.8225,80.58,94,75,8.05,CC,1682872610
115,itoman,26.1247,127.6694,71.62,83,100,10.36,JP,1682872610
116,gambiran satu,-8.3939,114.1464,73.92,96,63,2.1,ID,1682872610
117,ballina,-28.8667,153.5667,58.19,71,0,9.22,AU,1682872611
118,novoderevyankovskaya,46.3231,38.7472,50.68,87,80,11.03,RU,1682872611
119,whitehorse,60.7161,-135.0538,44.02,84,100,15.01,CA,1682872611
120,goz beida,13.95,20.55,92.77,9,16,7.18,TD,1682872611
121,utrik,11.2278,169.8474,80.89,80,48,20.4,MH,1682872611
122,ormara,25.2088,64.6357,80.28,69,1,10.78,PK,1682872487
123,tazovsky,67.4667,78.7,25.97,91,98,16.02,RU,1682872611
124,hithadhoo,-0.6,73.0833,83.12,77,100,11.99,MV,1682872611
125,atafu village,-8.5421,-172.5159,83.77,78,86,17.09,TK,1682872611
126,badger,64.8,-147.5333,37.81,92,100,4.61,US,1682872612
127,ilulissat,69.2167,-51.1,39.22,41,0,14.97,GL,1682872612
128,nantucket,41.2835,-70.0995,53.71,98,100,19.57,US,1682872437
129,jamestown,42.097,-79.2353,56.79,89,100,8.05,US,1682872410
130,bodri,23.1667,81.4333,73.27,61,100,5.32,IN,1682872612
131,shingu,33.7333,135.9833,55.0,78,100,4.72,JP,1682872612
132,vershino-darasunskiy,52.35,115.5167,44.47,34,100,7.38,RU,1682872612
133,puerto ayora,-0.7393,-90.3518,84.16,91,46,8.01,EC,1682872612
134,aasiaat,68.7098,-52.8699,32.02,71,0,5.5,GL,1682872612
135,muravlenko,63.7898,74.523,22.1,92,19,17.18,RU,1682872613
136,port mathurin,-19.6833,63.4167,79.02,79,0,13.65,MU,1682872613
137,gadzhiyevo,69.2551,33.3362,35.06,88,66,10.31,RU,1682872391
138,prachuap khiri khan,12.2167,99.75,81.68,89,100,2.62,TH,1682872456
139,alofi,-19.0595,-169.9187,75.09,83,98,10.36,NU,1682872613
140,afaahiti,-17.75,-149.2833,75.07,80,43,12.24,PF,1682872613
141,cholpon-ata,42.6494,77.0823,53.65,73,100,4.65,KG,1682872613
142,bullas,38.0467,-1.6723,77.34,45,100,13.78,ES,1682872613
143,port elizabeth,-33.918,25.5701,65.1,83,75,16.11,ZA,1682872471
144,sitka,57.0531,-135.33,48.09,87,100,0.0,US,1682872674
145,chonchi,-42.6128,-73.8092,48.11,74,62,5.44,CL,1682872674
146,laguna,38.421,-121.4238,67.08,66,0,10.36,US,1682872674
147,udachny,66.4167,112.4,30.7,94,100,17.25,RU,1682872674
148,boke,10.9409,-14.2967,92.37,40,13,14.43,GN,1682872674
149,nuuk,64.1835,-51.7216,32.61,86,40,24.16,GL,1682872674
150,richards bay,-28.783,32.0377,66.34,89,59,4.41,ZA,1682872556
151,fiambala,-27.6871,-67.6149,88.56,5,100,4.99,AR,1682872674
152,kodiak,57.79,-152.4072,38.71,87,100,4.61,US,1682872674
153,ta`u,-14.2336,-169.5144,82.08,75,73,23.76,AS,1682872675
154,verdal,63.7933,11.4817,35.64,79,100,14.36,NO,1682872675
155,suwayr,30.1171,40.3893,74.34,21,0,7.9,SA,1682872675
156,patterson,37.4716,-121.1297,66.06,40,91,2.62,US,1682872675
157,fisterra,42.9049,-9.2629,62.74,81,82,15.61,ES,1682872675
158,saldanha,-33.0117,17.9442,62.65,76,2,12.39,ZA,1682872675
159,codrington,-38.2667,141.9667,54.41,90,81,5.77,AU,1682872675
160,port macquarie,-31.4333,152.9167,55.89,79,93,6.78,AU,1682872433
161,ust-nera,64.5667,143.2,14.92,99,90,2.59,RU,1682872676
162,santiago de cao,-7.9589,-79.2392,77.13,73,17,12.66,PE,1682872676
163,ceerigaabo,10.6162,47.368,66.97,71,100,3.04,SO,1682872676
164,barra de santo antonio,-9.4047,-35.5072,78.08,80,28,7.9,BR,1682872676
165,marsh harbour,26.5412,-77.0636,82.4,68,76,29.21,BS,1682872524
166,rabaul,-4.1967,152.1721,79.7,82,100,6.31,PG,1682872676
167,rajapur,25.3833,81.15,75.85,58,100,11.48,IN,1682872676
168,la'ie,21.6477,-157.9253,75.16,79,4,15.5,US,1682872676
169,inyonga,-6.7167,32.0667,66.18,91,48,2.33,TZ,1682872677
170,hermanus,-34.4187,19.2345,60.8,72,0,2.77,ZA,1682872677
171,sao joao da barra,-21.6403,-41.0511,78.89,81,95,9.53,BR,1682872677
172,aral,40.5156,81.2636,69.69,13,0,6.4,CN,1682872677
173,bludenz,47.1497,9.8167,62.98,57,100,5.01,AT,1682872677
174,karratha,-20.7377,116.8463,77.07,24,100,7.52,AU,1682872677
175,tabou,4.423,-7.3528,81.97,80,71,10.29,CI,1682872677
176,perryton,36.4,-100.8027,55.33,35,0,17.27,US,1682872647
177,auki,-8.7676,160.7034,79.09,86,90,4.09,SB,1682872677
178,nemuro,43.3236,145.575,42.93,86,24,19.26,JP,1682872678
179,bonthe,7.5264,-12.505,86.31,65,5,14.2,SL,1682872678
180,margaret river,-33.95,115.0667,58.91,86,76,7.09,AU,1682872678
181,al kharijah,25.4514,30.5464,74.77,18,0,11.41,EG,1682872678
182,al burayqah,30.4062,19.5739,70.99,45,6,8.9,LY,1682872678
183,georgetown,5.4112,100.3354,78.75,94,40,1.14,MY,1682872471
184,cide,41.8921,33.0044,50.72,78,78,12.93,TR,1682872678
185,kayangel,8.0823,134.7173,82.67,78,100,14.85,PW,1682872678
186,zhanjiang,21.2815,110.3427,72.79,83,65,3.76,CN,1682872679
187,formosa do rio preto,-11.0483,-45.1931,81.01,62,75,4.38,BR,1682872679
188,thunder bay,48.4001,-89.3168,39.18,75,100,16.11,CA,1682872679
189,cangzhou,38.3167,116.8667,57.02,33,0,7.45,CN,1682872679
190,bengkulu,-3.8004,102.2655,77.34,91,48,3.47,ID,1682872679
191,puerto baquerizo moreno,-0.9,-89.6,83.39,79,20,4.61,EC,1682872679
192,adre,13.4667,22.2,90.84,12,88,4.29,TD,1682872739
193,nova sintra,14.8667,-24.7167,69.82,76,17,17.29,CV,1682872740
194,malakal,9.5334,31.6605,79.41,63,100,1.77,SS,1682872740
195,egilsstadir,65.2653,-14.3948,37.31,48,40,19.57,IS,1682872740
196,lethem,3.3803,-59.7968,92.01,45,60,11.86,GY,1682872740
197,qarauyl,48.9451,79.255,41.9,38,20,7.45,KZ,1682872740
198,klyuchi,52.2667,79.1667,39.24,37,44,8.32,RU,1682872740
199,enewetak,11.3474,162.3373,80.35,82,49,21.72,MH,1682872740
200,keflavik,64.0049,-22.5624,46.31,33,0,18.41,IS,1682872740
201,hadibu,12.65,54.0333,83.88,72,50,3.02,YE,1682872741
202,natchitoches,31.7668,-93.1335,74.25,49,0,6.91,US,1682872741
203,nouadhibou,20.931,-17.0347,75.18,64,0,19.57,MR,1682872741
204,richmond hill,43.8711,-79.4372,52.38,96,100,9.42,CA,1682872538
205,manokwari,-0.8667,134.0833,79.16,83,100,4.92,ID,1682872741
206,tofol,5.3248,163.0078,83.12,78,98,19.46,FM,1682872741
207,loango,-4.6719,11.8312,83.86,79,40,10.36,CG,1682872742
208,eyl,7.9803,49.8164,83.91,74,71,8.86,SO,1682872742
209,punta arenas,-53.15,-70.9167,41.11,70,0,24.16,CL,1682872580
210,aldan,58.6031,125.3894,31.53,97,92,4.16,RU,1682872743
211,pedreira,-22.7419,-46.9014,79.47,53,0,4.94,BR,1682872743
212,darnah,32.767,22.6367,64.83,57,9,6.13,LY,1682872744
213,tiksi,71.6872,128.8694,19.06,100,100,3.56,RU,1682872745
214,cockburn town,21.4612,-71.1419,79.45,84,52,18.92,TC,1682872745
215,udomlya,57.8794,34.9925,47.66,64,100,7.23,RU,1682872746
216,aitape,-3.1374,142.3475,77.29,89,97,3.89,PG,1682872747
217,usinsk,65.9939,57.5281,30.51,85,95,2.08,RU,1682872747
218,agadez,19.75,10.25,96.06,8,42,5.3,NE,1682872747
219,phan thiet,10.9333,108.1,78.24,87,82,10.07,VN,1682872747
220,port douglas,-16.4833,145.4667,73.92,87,83,5.32,AU,1682872748
221,luganville,-15.5333,167.1667,80.51,85,67,9.51,VU,1682872748
222,den burg,53.0542,4.7972,61.95,58,100,8.05,NL,1682872748
223,saint-joseph,-21.3667,55.6167,75.58,83,31,8.23,RE,1682872748
224,rio grande,-32.035,-52.0986,82.51,54,2,10.83,BR,1682872749
225,dunda,-8.1167,34.25,68.34,85,100,1.99,TZ,1682872749
226,gaspe,48.8334,-64.4819,57.42,44,75,6.91,CA,1682872749
227,puerto el triunfo,13.2833,-88.55,92.26,59,93,8.48,SV,1682872749
228,mundybash,53.211,87.2983,31.98,72,64,2.42,RU,1682872749
229,rongelap,11.1635,166.8941,81.16,81,47,21.34,MH,1682872750
230,galapagar,40.5783,-4.0043,75.45,35,100,8.99,ES,1682872684
231,fabens,31.5023,-106.1586,75.15,9,2,4.5,US,1682872750
232,axim,4.8699,-2.2405,78.03,83,100,4.65,GH,1682872750
233,freetown,8.484,-13.2299,85.71,70,40,74.8,SL,1682872750
234,cole harbour,44.6724,-63.4751,51.19,69,99,16.11,CA,1682872751
235,westport,41.1415,-73.3579,57.88,90,100,11.5,US,1682872751
236,pisco,-13.7,-76.2167,75.25,73,0,8.05,PE,1682872478
237,pueblo nuevo,23.3833,-105.3833,76.08,13,30,6.71,MX,1682872751
238,arteche,12.2645,125.4048,79.41,88,71,4.09,PH,1682872752
239,enshi,30.3,109.4833,58.37,77,7,0.74,CN,1682872752
240,hami,42.8,93.45,68.14,13,100,6.96,CN,1682872751
241,colchani,-20.3,-66.9333,57.47,16,1,6.04,BO,1682872813
242,dampit,-8.2116,112.7493,70.84,95,62,2.62,ID,1682872814
243,east london,-33.0153,27.9116,61.74,94,100,9.22,ZA,1682872814
244,portland,45.5234,-122.6762,58.23,82,100,5.99,US,1682872626
245,valderice,38.0401,12.6151,65.39,82,40,9.22,IT,1682872815
246,happy valley-goose bay,53.3168,-60.3315,50.31,46,20,9.22,CA,1682872815
247,tukrah,32.5341,20.5791,66.74,46,16,8.99,LY,1682872816
248,ola,59.5833,151.2833,30.15,92,96,5.32,RU,1682872816
249,oranjemund,-28.55,16.4333,58.01,82,85,6.38,NA,1682872816
250,belel,7.05,14.4333,64.8,83,100,2.04,CM,1682872817
251,cavelossim,15.1726,73.9419,84.18,73,32,7.54,IN,1682872817
252,navegantes,-26.8989,-48.6542,79.68,61,40,10.36,BR,1682872818
253,ongwediva,-17.7833,15.7667,85.39,23,31,7.78,NA,1682872818
254,campbell river,50.0163,-125.2446,58.59,82,100,3.44,CA,1682872522
255,illizi,26.4833,8.4667,98.4,9,22,9.95,DZ,1682872819
256,along,28.1667,94.7667,64.29,93,100,2.89,IN,1682872819
257,midvagur,62.0511,-7.1939,38.23,60,100,9.22,FO,1682872819
258,peace river,56.2501,-117.286,59.31,30,20,5.75,CA,1682872819
259,berbera,10.4396,45.0143,84.38,61,100,3.38,SO,1682872820
260,ixtapa,20.7,-105.2,76.23,69,0,0.0,MX,1682872821
261,vallenar,-28.5708,-70.7581,79.29,31,81,4.07,CL,1682872823
262,kupang,-10.1667,123.5833,75.74,86,2,8.1,ID,1682872823
263,hampton bays,40.869,-72.5176,58.48,99,100,5.75,US,1682872823
264,springs,-26.25,28.4,69.42,68,20,7.27,ZA,1682872824
265,chelak,39.9203,66.8611,70.56,21,98,7.09,UZ,1682872824
266,qaqortoq,60.7167,-46.0333,38.73,50,0,4.03,GL,1682872825
267,contai,21.7786,87.7536,84.13,51,97,11.61,IN,1682872826
268,nogent-sur-seine,48.4167,3.75,63.66,78,100,5.95,FR,1682872826
269,sandnessjoen,66.0217,12.6316,40.64,84,75,13.8,NO,1682872826
270,tinajo,29.0788,-13.7081,83.28,39,0,12.66,ES,1682872827
271,bulayevo,54.9056,70.4439,40.95,48,100,7.54,KZ,1682872827
272,albertina,-22.2008,-46.6158,75.04,51,4,5.5,BR,1682872828
273,greenville,35.6127,-77.3663,69.96,98,100,9.22,US,1682872828
274,vadso,70.0744,29.7487,45.48,56,0,6.91,NO,1682872828
275,north bend,43.4065,-124.2243,54.91,87,100,8.05,US,1682872828
276,ambo,-10.1308,-76.2047,75.61,50,12,6.98,PE,1682872829
277,pong,19.1493,100.2752,73.26,92,90,0.45,TH,1682872829
278,crane,31.3974,-102.3501,84.06,11,0,12.53,US,1682872829
279,el bauga,18.262,33.9081,84.96,10,20,11.36,SD,1682872829
280,mana,5.6592,-53.7767,84.47,68,53,10.76,GF,1682872548
281,markovo,57.3206,107.0881,25.14,96,69,3.83,RU,1682872830
282,camenca,48.0319,28.6978,52.79,66,100,5.57,MD,1682872830
283,zhongshu,24.5167,103.7667,56.64,95,100,4.25,CN,1682872831
284,francistown,-21.17,27.5079,75.61,34,0,13.22,BW,1682872832
285,khanbari,27.3747,87.2039,64.94,73,100,1.88,NP,1682872832
286,bac lieu,9.285,105.7244,83.3,77,58,13.62,VN,1682872833
287,butterworth,5.3991,100.3638,78.85,94,40,1.14,MY,1682872893
288,al hudaydah,14.7978,42.9545,85.57,70,93,13.02,YE,1682872893
289,arar,30.9753,41.0381,75.22,13,0,11.5,SA,1682872893
290,praia da vitoria,38.7333,-27.0667,70.05,64,40,17.78,PT,1682872894
291,sokoni,-6.4333,39.55,80.46,81,100,13.09,TZ,1682872895
292,pak phanang,8.3511,100.202,82.92,79,84,5.32,TH,1682872895
293,choyr,46.3611,108.3611,54.14,20,98,9.48,MN,1682872896
294,nacozari de garcia,30.3742,-109.6908,81.75,12,98,4.65,MX,1682872896
295,cooper's town,26.8667,-77.5167,80.01,81,92,30.89,BS,1682872896
296,lata,40.1629,-8.3327,75.92,50,67,10.36,PT,1682872896
297,mormugao,15.4,73.8,83.46,65,20,10.36,IN,1682872897
298,nogliki,51.8333,143.1667,27.39,96,100,17.47,RU,1682872897
299,ulsteinvik,62.3432,5.8487,40.91,79,96,13.0,NO,1682872897
300,ust-tsilma,65.441,52.1498,32.45,95,100,6.64,RU,1682872898
301,matthew town,20.95,-73.6667,82.18,72,100,10.0,BS,1682872898
302,port alfred,-33.5906,26.891,63.18,86,96,1.01,ZA,1682872899
303,i-n-salah,27.1935,2.4607,103.08,6,7,9.48,DZ,1682872899
304,alpine,32.835,-116.7664,90.28,94,100,0.0,US,1682872899
305,luderitz,-26.6481,15.1594,58.51,82,99,6.55,NA,1682872899
306,winchester,51.0651,-1.3187,60.66,66,20,6.91,GB,1682872691
307,singkil,-7.9855,111.4161,75.33,97,58,2.37,ID,1682872899
308,fort bragg,35.139,-79.006,73.81,90,100,4.61,US,1682872899
309,jertih,5.7336,102.4897,77.88,89,75,3.87,MY,1682872900
310,ovalle,-30.5983,-71.2003,72.12,50,74,4.43,CL,1682872900
311,ketchikan,55.3422,-131.6461,46.87,87,100,4.61,US,1682872900
312,margate,51.3813,1.3862,59.88,67,100,3.0,GB,1682872900
313,castillos,-34.1667,-53.8333,82.13,43,45,12.46,UY,1682872900
314,matoury,4.8483,-52.3317,84.16,74,100,13.8,GF,1682872801
315,nkove,-7.95,30.85,74.23,73,29,1.97,TZ,1682872900
316,sawara,35.8833,140.5,62.15,69,100,8.05,JP,1682872900
317,mokhsogollokh,61.4681,128.9203,31.87,88,94,5.03,RU,1682872901
318,newman,37.3138,-121.0208,69.24,10,82,3.56,US,1682872901
319,yallahs,17.8748,-76.5624,88.83,61,86,9.31,JM,1682872901
320,vyazemskiy,47.5378,134.7525,37.9,93,100,6.29,RU,1682872901
321,khetri,27.9833,75.8,70.09,58,100,1.23,IN,1682872901
322,itacare,-14.2775,-38.9967,83.34,67,21,8.46,BR,1682872901
323,taulaga,-11.0553,-171.0883,82.98,79,99,19.75,AS,1682872901
324,kingston,17.997,-76.7936,88.25,72,20,17.27,JM,1682872901
325,howrah,22.5892,88.3103,75.2,88,40,0.0,IN,1682872902
326,vung tau,10.346,107.0843,82.81,80,22,21.41,VN,1682872902
327,babu,24.4167,111.5167,62.69,75,83,1.9,CN,1682872902
328,ancud,-41.8697,-73.8203,49.8,63,69,11.27,CL,1682872902
329,salahonda,2.1019,-78.7217,80.56,79,55,4.45,CO,1682872902
330,prado,-17.3411,-39.2208,82.04,65,21,7.0,BR,1682872608
331,remire-montjoly,4.9167,-52.2667,84.24,74,100,13.8,GF,1682872902
332,skelleftea,64.7507,20.9528,37.76,87,0,6.91,SE,1682872902
333,wanning,18.8003,110.3967,75.74,88,95,6.13,CN,1682872902
334,cidreira,-30.1811,-50.2056,75.15,60,0,9.13,BR,1682872903
335,rodolfo sanchez taboada,31.7167,-116.5667,58.1,84,73,1.01,MX,1682872903
336,miquelon,47.0975,-56.3814,51.8,76,1,15.73,PM,1682872963
337,sungailiat,-1.85,106.1333,80.94,81,51,3.33,ID,1682872963
338,mabaruma,8.2,-59.7833,86.41,60,96,6.29,GY,1682872963
339,qamdo,31.1667,97.2333,37.87,47,88,5.86,CN,1682872963
340,turpan,42.9333,89.1667,78.4,21,96,6.15,CN,1682872964
341,attnang-puchheim,48.0112,13.715,61.83,75,73,9.62,AT,1682872964
342,puerto plata,19.7934,-70.6884,90.45,58,20,11.5,DO,1682872964
343,iwanai,42.9744,140.5089,46.67,89,76,11.97,JP,1682872964
344,kisangani,0.5167,25.2,70.92,97,87,2.62,CD,1682872964
345,bryne,58.7354,5.6477,44.26,63,100,5.75,NO,1682872964
346,port lincoln,-34.7333,135.8667,58.93,83,100,7.02,AU,1682872964
347,santa cruz,-17.8,-63.1667,89.06,62,40,24.16,BO,1682872964
348,smithers,54.7804,-127.1743,44.92,76,100,3.44,CA,1682872921
349,tagab,34.855,69.6492,68.41,42,5,3.38,AF,1682872965
350,queenstown,-31.8976,26.8753,52.34,63,0,5.86,ZA,1682872965
351,mount pearl,47.5166,-52.7813,42.85,82,100,25.32,CA,1682872909
352,arraias,-12.9288,-46.9437,88.16,37,32,4.83,BR,1682872965
353,tezu,27.9167,96.1667,73.26,53,91,2.73,IN,1682872965
354,machico,32.7,-16.7667,80.71,73,20,5.75,PT,1682872965
355,fale old settlement,-9.3852,-171.2468,83.62,77,100,16.26,TK,1682872965
356,pangoa,-12.1167,-73.0,85.21,59,22,4.03,PE,1682872966
357,saint-philippe,-21.3585,55.7679,76.59,81,52,7.11,RE,1682872966
358,horta,38.5333,-28.6333,64.04,78,20,18.41,PT,1682872966
359,mil'kovo,55.6078,37.7956,48.4,91,100,12.48,RU,1682872966
360,sept-iles,50.2001,-66.3821,48.72,63,75,13.8,CA,1682872966
361,magadan,59.5667,150.8,29.53,87,94,5.01,RU,1682872966
362,tacarigua,10.0862,-67.9198,91.44,55,70,5.75,VE,1682872966
363,xilin hot,43.9667,116.0333,43.9,25,1,6.02,CN,1682872966
364,severo-yeniseyskiy,60.3725,93.0408,25.25,96,100,7.65,RU,1682872967
365,turuntayevo,52.2,107.6167,53.69,91,100,3.49,RU,1682872967
366,mahajanga,-15.7167,46.3167,80.62,69,20,6.91,MG,1682872967
367,sisimiut,66.9395,-53.6735,33.08,85,30,15.32,GL,1682872967
368,selkirk,50.1436,-96.8845,50.14,63,96,18.25,CA,1682872814
369,alo,7.4178,6.7371,82.15,73,97,3.6,NG,1682872967
370,bolobo,-2.1667,16.2333,76.03,76,37,3.31,CD,1682872967
371,port hedland,-20.3167,118.5667,73.45,27,100,4.61,AU,1682872967
372,isangel,-19.55,169.2667,76.87,84,24,7.78,VU,1682872968
373,fort mcmurray,56.7268,-111.381,56.79,26,0,9.22,CA,1682872968
374,porkhov,57.765,29.5561,46.58,54,82,7.72,RU,1682872968
375,porto novo,6.4965,2.6036,85.82,75,99,10.11,BJ,1682872968
376,taoudenni,22.6783,-3.9836,109.0,4,0,3.29,ML,1682872968
377,vila velha,-20.3297,-40.2925,78.75,90,100,11.5,BR,1682872871
378,namibe,-15.1961,12.1522,76.69,85,23,9.24,AO,1682872968
379,kargil,34.5667,76.1,35.51,56,94,5.46,IN,1682872968
380,salalah,17.0151,54.0924,84.29,84,40,6.91,OM,1682872754
381,leh,34.1667,77.5833,33.94,42,25,2.35,IN,1682872969
382,grand island,40.925,-98.342,52.09,46,40,21.85,US,1682872969
383,lincheng,19.9078,109.6858,73.54,79,85,5.41,CN,1682872969
384,puerto cabezas,14.0351,-83.3888,85.96,79,75,6.91,NI,1682872969
385,dhandhuka,22.3667,71.9833,84.18,43,64,9.91,IN,1682873029
386,khamis mushait,18.3064,42.7292,61.84,72,40,4.61,SA,1682873029
387,valognes,49.5088,-1.4705,54.79,82,75,6.91,FR,1682873029
388,warwick,41.7001,-71.4162,58.3,92,100,9.22,US,1682873030
389,esil,51.9556,66.4042,55.29,27,16,0.74,KZ,1682873030
390,panshi,42.9422,126.0561,41.22,72,97,2.39,CN,1682873030
391,kalix,65.853,23.1565,33.49,100,100,7.52,SE,1682872874
392,patong,7.8961,98.2966,78.94,80,100,8.48,TH,1682873030
393,fort st. john,56.2499,-120.8529,55.29,38,75,3.44,CA,1682873030
394,flin flon,54.7682,-101.865,42.64,61,40,9.22,CA,1682873030
395,malango,-2.9627,119.9001,67.98,97,100,2.44,ID,1682873030
396,caidian,30.5833,114.0333,62.73,53,0,5.14,CN,1682873031
397,ariguani,10.25,-74.0,87.8,65,98,6.67,CO,1682873031
398,rawson,-43.3002,-65.1023,56.95,36,44,10.96,AR,1682873031
399,erenhot,43.6475,111.9767,55.17,23,21,14.58,CN,1682873031
400,ubari,26.5921,12.7805,92.32,10,0,10.16,LY,1682873031
401,paradip garh,20.3167,86.6167,82.35,60,99,7.9,IN,1682873031
402,antsiranana,-12.2787,49.2917,76.77,80,8,8.81,MG,1682873031
403,bambanglipuro,-7.95,110.2833,76.53,91,49,3.96,ID,1682873031
404,malvan,16.0667,73.4667,82.45,72,29,12.3,IN,1682873032
405,tolanaro,-25.0319,46.9987,77.07,83,20,9.22,MG,1682873032
406,nizhneangarsk,55.7833,109.55,28.85,93,100,3.24,RU,1682873032
407,tateyama,34.9833,139.8667,62.85,86,100,5.21,JP,1682873032
408,shakawe,-18.3667,21.85,78.12,27,21,4.94,BW,1682873032
409,santyoku,37.4406,129.1708,52.66,67,30,9.46,KR,1682873032
410,kirensk,57.7853,108.1119,27.3,91,70,5.95,RU,1682873032
411,andergrove,-21.0833,149.1833,64.65,83,1,6.11,AU,1682873033
412,pustoshka,56.3355,29.369,45.37,86,99,3.71,RU,1682873033
413,pergamino,-33.89,-60.5736,75.61,77,100,12.64,AR,1682873033
414,nadi,-17.8,177.4167,73.4,94,20,2.3,FJ,1682873033
415,myeik,12.4333,98.6,76.77,83,95,4.65,MM,1682873033
416,charters towers,-20.1,146.2667,63.59,66,0,9.73,AU,1682873033
417,great bend,38.3645,-98.7648,61.03,29,0,24.16,US,1682873033
418,rawai,7.7797,98.3253,78.91,77,100,10.02,TH,1682873033
419,severnoye,56.3491,78.3619,29.88,77,89,7.11,RU,1682873034
420,broome,42.2506,-75.833,55.29,95,100,10.36,US,1682873034
421,kargopol',61.5071,38.9456,45.61,60,95,7.78,RU,1682873034
422,mar del plata,-38.0023,-57.5575,66.22,96,100,25.32,AR,1682872764
423,lake murray of richland,34.1205,-81.2645,67.59,68,91,5.01,US,1682873034
424,awka,6.2101,7.0741,84.11,67,96,10.31,NG,1682873034
425,sealy,29.7808,-96.1572,78.85,46,0,7.05,US,1682873034
426,carhuaz,-9.2819,-77.6447,69.73,52,36,2.93,PE,1682873034
427,mochudi,-24.4167,26.15,79.39,26,9,6.02,BW,1682873034
428,maymana,35.9214,64.7836,74.68,21,96,7.4,AF,1682873035
429,naze,28.3667,129.4833,61.72,85,100,7.76,JP,1682873035
430,korla,41.7597,86.1469,66.58,25,26,6.22,CN,1682872752
431,harstad,68.799,16.5293,40.39,99,76,20.0,NO,1682873035
432,san-pedro,4.7485,-6.6363,72.99,95,92,14.63,CI,1682873035
433,george town,5.4112,100.3354,78.75,94,40,1.14,MY,1682873035
434,nelson,-41.2833,173.2833,59.29,88,100,4.54,NZ,1682872945
435,mineros,-17.1167,-63.2333,92.16,45,8,12.88,BO,1682873095
436,cacule,-14.5033,-42.2222,90.18,34,29,7.76,BR,1682873096
437,murzuq,25.9155,13.9184,89.92,11,0,5.59,LY,1682873096
438,opuwo,-18.0607,13.84,82.18,23,53,5.14,NA,1682873096
439,yuzhno-kurilsk,44.0306,145.8556,42.93,89,91,6.08,RU,1682873096
440,zag,46.9441,99.165,47.26,31,100,10.09,MN,1682873096
441,kone,-21.0595,164.8658,71.47,90,100,4.07,NC,1682873096
442,ocean shores,46.9737,-124.1563,53.96,94,100,9.22,US,1682872874
443,lompoc,34.6391,-120.4579,53.74,100,100,9.22,US,1682873096
444,perene,-10.9492,-75.2261,88.92,46,55,4.21,PE,1682873097
445,vila franca do campo,37.7167,-25.4333,66.61,74,24,12.17,PT,1682873097
446,serra san bruno,38.5754,16.3244,51.46,95,100,3.11,IT,1682873097
447,novouzensk,50.4592,48.1431,72.88,42,100,10.16,RU,1682873097
448,roxas,11.5853,122.7511,78.15,86,88,5.28,PH,1682873097
449,catriel,-37.8791,-67.7956,64.69,16,95,38.59,AR,1682873097
450,holualoa,19.6228,-155.9522,69.78,83,0,5.75,US,1682873097
451,watford city,47.8022,-103.2832,48.15,46,0,4.61,US,1682873097
452,sinop,41.7711,34.8709,43.99,89,100,1.83,TR,1682873098
453,bor,56.3567,44.0669,49.93,84,100,16.11,RU,1682873098
454,minot,48.2325,-101.2963,47.01,57,75,18.41,US,1682872972
455,daru,-9.0763,143.2092,78.91,88,99,11.48,PG,1682873098
456,khandyga,62.6667,135.6,24.48,99,97,1.41,RU,1682873098
457,bikenibeu village,1.3673,173.1241,82.36,83,75,11.5,KI,1682873098
458,mondlo,-27.983,30.7177,55.9,89,76,9.69,ZA,1682873098
459,lebu,-37.6167,-73.65,54.59,72,9,8.46,CL,1682873099
460,tehran,35.6944,51.4215,80.58,12,40,11.5,IR,1682873099
461,enoch,37.7733,-113.0244,74.48,32,0,1.99,US,1682873099
462,asaita,11.5636,41.4394,79.0,69,100,4.83,ET,1682873099
463,oamaru,-45.0784,170.9801,47.37,93,100,3.89,NZ,1682873099
464,naifaru,5.4444,73.3657,84.24,73,84,6.02,MV,1682873099
465,tucumcari,35.1717,-103.725,72.95,18,1,10.42,US,1682873099
466,aktau,43.65,51.2,64.98,37,98,1.72,KZ,1682873099
467,chui,-33.6971,-53.4616,81.95,43,41,13.0,UY,1682872810
468,santa ana de yacuma,-13.75,-65.4333,91.35,62,40,9.22,BO,1682873100
469,tamanrasset,22.785,5.5228,91.31,6,40,4.61,DZ,1682873100
470,callao,-12.0667,-77.15,77.29,69,75,10.36,PE,1682873100
471,turan,16.0678,108.2208,76.98,83,40,3.44,VN,1682872955
472,st. john's,47.5649,-52.7093,43.68,82,100,25.32,CA,1682872984
473,lincoln city,44.9582,-124.0179,56.05,95,100,5.99,US,1682872825
474,choibalsan,48.0667,114.5,49.26,27,65,14.85,MN,1682873100
475,arno,60.1167,18.6333,39.78,51,60,8.59,SE,1682873100
476,katutura,-22.521,17.0557,76.17,60,64,12.97,NA,1682873101
477,totness,5.8833,-56.3167,82.78,72,91,10.89,SR,1682873101
478,chibougamau,49.9168,-74.3659,44.22,87,100,14.97,CA,1682873101
479,coxen hole,16.3244,-86.5366,81.36,83,75,10.36,HN,1682873101
480,veinticinco de mayo,-35.4323,-60.1727,58.98,80,100,18.01,AR,1682873101
481,alice springs,-23.7,133.8833,44.15,81,85,5.41,AU,1682873162
482,banamba,13.55,-7.45,103.62,9,9,4.85,ML,1682873162
483,quellon,-43.1167,-73.6167,48.45,76,40,11.5,CL,1682873162
484,santo antonio do ica,-3.1022,-67.9397,86.95,70,90,2.64,BR,1682873162
485,saynshand,44.8824,110.1163,59.29,20,51,14.72,MN,1682873163
486,neuhof,50.4531,9.6175,61.14,65,29,9.37,DE,1682873163
487,jianshui,23.6363,102.8264,62.01,94,78,2.71,CN,1682873163
488,vorkuta,67.5,64.0,11.59,89,7,3.78,RU,1682873164
489,lospalos,-8.5186,127.0025,70.09,96,16,2.86,TL,1682873164
490,kurmuk,10.55,34.2833,80.02,59,100,3.65,SD,1682873164
491,nueva guinea,11.6876,-84.4562,94.57,39,20,7.16,NI,1682873164
492,manjeshvar,12.7,74.8833,85.39,78,100,6.46,IN,1682873165
493,kruisfontein,-34.0033,24.7314,62.89,83,37,11.43,ZA,1682873165
494,nsunga,-1.1439,31.3947,64.92,95,96,1.48,TZ,1682873165
495,trondheim,63.4305,10.3951,39.29,89,72,1.01,NO,1682872916
496,ma'rib,15.4591,45.3253,82.8,37,99,6.24,YE,1682873166
497,chimoio,-19.1164,33.4833,73.26,73,75,2.35,MZ,1682873166
498,hasaki,35.7333,140.8333,62.22,64,100,20.78,JP,1682873166
499,knysna,-34.0363,23.0471,61.38,90,4,4.97,ZA,1682873166
500,okhotsk,59.3833,143.3,24.55,91,100,5.84,RU,1682873167
501,n'zeto,-7.2312,12.8666,79.97,84,62,4.9,AO,1682873167
502,nuku'alofa,-21.1333,-175.2,77.34,88,20,11.5,TO,1682873167
503,thurso,58.5927,-3.5259,50.25,96,100,6.35,GB,1682873167
504,luwuk,-0.9516,122.7875,77.56,89,96,3.51,ID,1682873168
505,olbia,40.9214,9.4856,64.45,82,75,6.91,IT,1682873168
506,rikaze,29.25,88.8833,46.74,41,100,7.72,CN,1682873168
507,charkhi dadri,28.6,76.2667,73.63,56,94,2.75,IN,1682873168
508,holbrook,40.8123,-73.0784,58.24,97,100,10.36,US,1682873169
509,enkoping,59.6361,17.0777,51.91,40,93,6.13,SE,1682873169
510,mocimboa,-11.3167,40.35,75.76,76,75,8.81,MZ,1682873169
511,dolores,-36.3132,-57.6792,68.54,88,100,12.57,AR,1682873169
512,flying fish cove,-10.4217,105.6791,80.4,77,97,0.94,CX,1682873169
513,chernomorskoye,45.5039,32.6997,49.69,89,99,15.48,UA,1682873170
514,chaman,30.9236,66.4512,73.06,36,36,1.25,PK,1682873170
515,huarmey,-10.0681,-78.1522,79.7,72,39,11.59,PE,1682873170
516,fort abbas,29.1925,72.8536,79.02,48,97,6.15,PK,1682873171
517,el granada,37.5027,-122.4694,63.68,87,100,20.71,US,1682873171
518,argo,37.6333,22.7333,64.78,75,98,3.0,GR,1682873171
519,brisas de zicatela,15.8369,-97.0419,84.72,70,40,5.75,MX,1682873171
520,weiser,44.251,-116.9693,71.87,49,11,1.01,US,1682873172
521,malpur,23.35,73.45,78.6,52,61,11.68,IN,1682873172
522,merizo village,13.2658,144.6691,81.16,88,55,16.98,GU,1682873172
523,al ghayzah,16.2079,52.176,84.52,75,19,11.59,YE,1682873173
524,waingapu,-9.6567,120.2641,75.85,86,63,4.27,ID,1682873173
525,kismayo,-0.3582,42.5454,80.71,76,100,17.27,SO,1682873173
526,kashgar,39.4547,75.9797,72.61,14,87,15.66,CN,1682873173
527,santa ana,33.7456,-117.8678,63.64,90,100,4.61,US,1682873234
528,mandalgovi,45.7625,106.2708,55.35,18,98,11.9,MN,1682873234
529,papao,-17.75,-149.55,76.68,78,27,14.72,PF,1682873234
530,childress,34.4264,-100.204,70.92,30,0,11.5,US,1682873234
531,coquimbo,-29.9533,-71.3436,67.73,72,0,11.5,CL,1682873235
532,fortuna,40.5982,-124.1573,54.66,92,100,4.0,US,1682873235
533,colares,38.7992,-9.4469,76.68,68,20,21.85,PT,1682873235
534,teluknaga,-6.0989,106.6381,83.17,100,75,5.75,ID,1682873235
535,sosnovo-ozerskoye,52.5249,111.5418,44.56,73,100,6.85,RU,1682873235
536,santa cruz de bezana,43.4437,-3.9032,62.91,88,40,5.99,ES,1682873236
537,mahina,-17.5065,-149.489,76.77,83,20,1.14,PF,1682873236
538,oltinko'l,40.8011,72.1634,76.26,24,87,5.55,UZ,1682873236
539,nagqu,31.5,92.0,31.19,91,100,6.58,CN,1682873236
540,la ronge,55.1001,-105.2842,44.85,45,40,5.75,CA,1682873236
541,kirov,58.5966,49.6601,45.97,68,100,8.3,RU,1682873237
542,bamboo flat,11.7,92.7167,83.68,68,94,3.76,IN,1682873237
543,paicandu,-23.4575,-52.0486,79.47,53,20,3.44,BR,1682873237
544,yagunovskiy,55.2828,85.978,33.24,59,0,8.99,RU,1682873237
545,la grande,45.3246,-118.0877,64.17,53,10,4.59,US,1682873238
546,machagai,-26.9261,-60.0496,94.01,37,1,14.99,AR,1682873238
547,panama city beach,30.1766,-85.8055,73.09,68,40,14.0,US,1682873238
548,tralee,52.2704,-9.7026,57.45,72,40,14.97,IE,1682873238
549,tommot,58.9564,126.2925,27.01,97,86,2.59,RU,1682873239
550,aykhal,66.0,111.5,29.17,97,100,21.18,RU,1682873170
551,yuanping,38.7153,112.7575,57.15,32,1,1.43,CN,1682873240
552,jieshi,22.8134,115.8257,70.03,85,96,15.55,CN,1682873240
553,annau,37.8876,58.516,83.7,17,40,9.22,TM,1682873240
554,kalmunai,7.4167,81.8167,81.36,77,40,6.24,LK,1682873240
555,klaksvik,62.2266,-6.589,38.32,61,100,16.06,FO,1682873240
556,waddan,29.1614,16.139,86.81,16,18,3.62,LY,1682873241
557,haugesund,59.4138,5.268,44.85,57,20,5.75,NO,1682873241
558,puerto aysen,-45.4,-72.7,45.32,83,93,5.17,CL,1682873237
559,nellore,14.4333,79.9667,82.18,73,97,7.36,IN,1682873242
560,san antonio de pale,-1.4014,5.6325,81.93,74,97,2.28,GQ,1682873242
561,emerald,-23.5333,148.1667,53.35,75,0,9.48,AU,1682873242
562,chapada dos guimaraes,-15.4606,-55.7497,83.86,47,1,4.41,BR,1682873242
563,shimoda,34.6667,138.95,63.1,74,100,2.82,JP,1682873243
564,salug,8.1147,122.7833,78.4,86,57,5.37,PH,1682873243
565,whistler,50.1164,-122.9695,51.03,54,75,0.0,CA,1682873243
566,bathsheba,13.2167,-59.5167,86.61,70,40,12.66,BB,1682873243
567,phan rang-thap cham,11.5667,108.9833,76.78,90,15,5.75,VN,1682873243
568,callaway,30.153,-85.5699,74.98,67,75,17.27,US,1682873244
569,jiagedaqi,50.4167,124.1167,35.4,85,0,3.33,CN,1682873244
